City,Latitude,Longitude,Max Temperature (F),Humidity (%),Cloudiness (%),Wind Speed (mph),Country,Date
Lucea,18.451,-78.1736,85.86,69,26,3.56,JM,"Oct 21, 2022"
Punta Arenas,-53.15,-70.9167,50.11,44,0,31.07,CL,"Oct 21, 2022"
Tuktoyaktuk,69.4541,-133.0374,21.2,86,75,8.05,CA,"Oct 21, 2022"
Jamestown,42.097,-79.2353,49.51,50,0,9.22,US,"Oct 21, 2022"
Ushuaia,-54.8,-68.3,44.19,77,60,9.42,AR,"Oct 21, 2022"
Provideniya,64.3833,-173.3,35.08,94,100,6.87,RU,"Oct 21, 2022"
Albany,42.6001,-73.9662,48.51,67,0,2.57,US,"Oct 21, 2022"
Morshansk,53.4435,41.8107,35.11,76,85,5.01,RU,"Oct 21, 2022"
Hilo,19.7297,-155.09,76.28,82,0,4.61,US,"Oct 21, 2022"
San Policarpo,12.1791,125.5072,82.6,81,92,7.76,PH,"Oct 21, 2022"
Bredasdorp,-34.5322,20.0403,68.58,47,14,13.15,ZA,"Oct 21, 2022"
Bluff,-46.6,168.3333,43.0,78,8,6.44,NZ,"Oct 21, 2022"
Busselton,-33.65,115.3333,53.73,81,90,9.28,AU,"Oct 21, 2022"
Alirajpur,22.3031,74.3546,78.12,50,0,2.57,IN,"Oct 21, 2022"
Tāki,22.5861,88.9214,82.35,71,0,6.15,IN,"Oct 21, 2022"
Piaçabuçu,-10.4056,-36.4344,82.26,61,59,11.99,BR,"Oct 21, 2022"
Kudahuvadhoo,2.6708,72.8944,82.02,74,100,12.44,MV,"Oct 21, 2022"
Severnoye,56.3491,78.3619,42.58,90,100,8.66,RU,"Oct 21, 2022"
Hobart,-42.8794,147.3294,62.46,91,100,9.22,AU,"Oct 21, 2022"
Tasiilaq,65.6145,-37.6368,33.96,96,100,2.55,GL,"Oct 21, 2022"
Port Blair,11.6667,92.75,80.1,85,100,11.43,IN,"Oct 21, 2022"
Puerto Ayora,-0.7393,-90.3518,71.56,85,95,5.99,EC,"Oct 21, 2022"
Roald,62.5833,6.1333,54.34,71,0,0.0,NO,"Oct 21, 2022"
Cherskiy,68.75,161.3,3.18,98,100,7.0,RU,"Oct 21, 2022"
Deputatsky,69.3,139.9,-5.69,97,28,6.96,RU,"Oct 21, 2022"
Mayo,38.8876,-76.5119,57.97,71,0,1.01,US,"Oct 21, 2022"
Necochea,-38.5473,-58.7368,56.55,68,83,19.3,AR,"Oct 21, 2022"
Choix,26.7092,-108.3219,71.19,62,12,4.0,MX,"Oct 21, 2022"
Ponta do Sol,32.6667,-17.1,77.72,93,100,4.14,PT,"Oct 21, 2022"
Coahuayana Viejo,18.7333,-103.6833,74.95,88,100,3.31,MX,"Oct 21, 2022"
Krasnyy Chikoy,50.3643,108.7512,28.36,86,41,3.04,RU,"Oct 21, 2022"
Ponta Delgada,37.7333,-25.6667,68.72,60,20,16.11,PT,"Oct 21, 2022"
Krosno Odrzańskie,52.0549,15.0988,57.65,56,100,7.96,PL,"Oct 21, 2022"
Gīdolē,5.65,37.3667,62.49,71,99,6.22,ET,"Oct 21, 2022"
Omboué,-1.5746,9.2618,81.61,73,67,9.89,GA,"Oct 21, 2022"
Muravlenko,63.7898,74.523,30.85,83,99,17.36,RU,"Oct 21, 2022"
George Town,5.4112,100.3354,84.13,85,40,1.14,MY,"Oct 21, 2022"
Ancud,-41.8697,-73.8203,50.23,55,1,2.55,CL,"Oct 21, 2022"
Faanui,-16.4833,-151.75,78.89,77,14,17.63,PF,"Oct 21, 2022"
Flin Flon,54.7682,-101.865,40.44,69,97,12.64,CA,"Oct 21, 2022"
Vaini,-21.2,-175.2,73.65,82,100,17.34,TO,"Oct 21, 2022"
Creemore,44.327,-80.1075,46.06,73,100,13.44,CA,"Oct 21, 2022"
Jūnāgarh,19.8667,82.9333,69.35,75,0,3.06,IN,"Oct 21, 2022"
Visby,57.6409,18.296,50.22,76,20,11.5,SE,"Oct 21, 2022"
Ihosy,-22.4,46.1167,79.18,43,34,15.08,MG,"Oct 21, 2022"
Avarua,-21.2078,-159.775,75.25,88,75,18.41,CK,"Oct 21, 2022"
Carnarvon,-24.8667,113.6333,67.75,78,0,16.75,AU,"Oct 21, 2022"
Saint Anthony,45.0205,-93.218,52.9,59,0,6.91,US,"Oct 21, 2022"
Coquimbo,-29.9533,-71.3436,56.93,82,100,5.75,CL,"Oct 21, 2022"
Longyearbyen,78.2186,15.6401,19.24,73,20,12.66,SJ,"Oct 21, 2022"
Clyde River,70.4692,-68.5914,26.83,86,100,17.27,CA,"Oct 21, 2022"
Atuona,-9.8,-139.0333,76.77,65,97,17.56,PF,"Oct 21, 2022"
Sobolevo,54.4299,31.8996,44.13,76,99,4.99,RU,"Oct 21, 2022"
Bathsheba,13.2167,-59.5167,88.41,66,40,17.27,BB,"Oct 21, 2022"
Moose Factory,51.2585,-80.6094,39.36,85,100,17.27,CA,"Oct 21, 2022"
Kruisfontein,-34.0033,24.7314,66.88,69,99,15.08,ZA,"Oct 21, 2022"
Qaanaaq,77.484,-69.3632,-2.31,60,0,9.91,GL,"Oct 21, 2022"
Soria,41.6667,-2.6667,58.1,100,100,16.24,ES,"Oct 21, 2022"
Nabire,-3.3667,135.4833,77.47,88,100,2.01,ID,"Oct 21, 2022"
Rikitea,-23.1203,-134.9692,70.95,74,5,21.79,PF,"Oct 21, 2022"
Salalah,17.0151,54.0924,82.49,65,40,5.75,OM,"Oct 21, 2022"
Ketchikan,55.3422,-131.6461,46.87,93,100,10.36,US,"Oct 21, 2022"
Lebu,-37.6167,-73.65,52.56,63,0,13.91,CL,"Oct 21, 2022"
Kaitangata,-46.2817,169.8464,36.57,88,11,5.68,NZ,"Oct 21, 2022"
Geraldton,-28.7667,114.6,63.34,83,0,12.01,AU,"Oct 21, 2022"
Mataura,-46.1927,168.8643,33.73,98,7,1.79,NZ,"Oct 21, 2022"
Bethel,41.3712,-73.414,55.15,72,0,0.0,US,"Oct 21, 2022"
Chokurdakh,70.6333,147.9167,11.73,94,100,13.8,RU,"Oct 21, 2022"
Lagoa,39.05,-27.9833,64.4,68,100,22.84,PT,"Oct 21, 2022"
Andenes,69.3143,16.1194,42.93,81,75,12.66,NO,"Oct 21, 2022"
Voyvozh,62.892,54.9635,30.36,80,100,9.64,RU,"Oct 21, 2022"
Mar del Plata,-38.0023,-57.5575,60.1,85,7,10.0,AR,"Oct 21, 2022"
Chapais,49.7834,-74.8492,37.18,76,100,14.34,CA,"Oct 21, 2022"
Kamenka,51.3223,42.7678,41.7,56,9,12.01,RU,"Oct 21, 2022"
Broome,42.2506,-75.833,47.44,60,0,8.05,US,"Oct 21, 2022"
Morgan City,29.6994,-91.2068,64.4,82,0,0.0,US,"Oct 21, 2022"
Channagiri,14.0333,75.9333,74.05,76,99,7.11,IN,"Oct 21, 2022"
Coyhaique,-45.5752,-72.0662,46.35,49,0,4.61,CL,"Oct 21, 2022"
Orotukan,62.2667,151.7,-0.65,89,100,3.58,RU,"Oct 21, 2022"
East London,-33.0153,27.9116,73.76,73,48,15.77,ZA,"Oct 21, 2022"
Labytnangi,66.6572,66.4183,29.62,94,100,5.14,RU,"Oct 21, 2022"
Mount Gambier,-37.8333,140.7667,57.11,94,100,6.91,AU,"Oct 21, 2022"
Port Alfred,-33.5906,26.891,71.19,83,97,4.0,ZA,"Oct 21, 2022"
Bilibino,68.0546,166.4372,11.28,97,100,2.33,RU,"Oct 21, 2022"
Hamilton,39.1834,-84.5333,51.78,49,82,1.99,US,"Oct 21, 2022"
Salinas,36.6777,-121.6555,56.07,93,100,5.75,US,"Oct 21, 2022"
Alofi,-19.0595,-169.9187,77.13,79,67,10.04,NU,"Oct 21, 2022"
Bilma,18.6853,12.9164,89.56,11,2,6.76,NE,"Oct 21, 2022"
Togitsu,32.8333,129.85,67.98,82,100,3.49,JP,"Oct 21, 2022"
Marzuq,14.4,46.4667,82.58,18,0,9.62,YE,"Oct 21, 2022"
Ilulissat,69.2167,-51.1,30.22,93,75,0.0,GL,"Oct 21, 2022"
Hithadhoo,-0.6,73.0833,82.62,74,100,10.29,MV,"Oct 21, 2022"
Taksimo,56.3444,114.8794,21.65,85,70,2.15,RU,"Oct 21, 2022"
Torbay,47.6666,-52.7314,55.49,96,75,6.91,CA,"Oct 21, 2022"
Mombetsu,44.3525,143.3525,52.2,70,100,6.67,JP,"Oct 21, 2022"
Mugumu,-1.85,34.7,82.58,21,95,10.8,TZ,"Oct 21, 2022"
Kayerkan,69.3497,87.7602,32.99,99,100,9.48,RU,"Oct 21, 2022"
Haines Junction,60.7522,-137.5108,34.81,95,100,1.48,CA,"Oct 21, 2022"
Ternate,0.8,127.4,82.45,76,98,3.24,ID,"Oct 21, 2022"
Narsaq,60.9167,-46.05,34.02,96,100,10.8,GL,"Oct 21, 2022"
Barrow,71.2906,-156.7887,26.62,86,100,23.02,US,"Oct 21, 2022"
Suntar,62.1444,117.6319,21.83,97,99,3.22,RU,"Oct 21, 2022"
Cayenne,4.9333,-52.3333,89.64,62,75,2.3,GF,"Oct 21, 2022"
Camacha,33.0833,-16.3333,67.42,83,75,8.05,PT,"Oct 21, 2022"
Butaritari,3.0707,172.7902,81.3,73,100,12.21,KI,"Oct 21, 2022"
Turukhansk,65.8167,87.9833,34.38,98,100,16.02,RU,"Oct 21, 2022"
Itarema,-2.9248,-39.9167,88.11,51,100,18.19,BR,"Oct 21, 2022"
Pevek,69.7008,170.3133,22.82,94,100,1.14,RU,"Oct 21, 2022"
Ribeira Grande,38.5167,-28.7,68.4,60,75,17.27,PT,"Oct 21, 2022"
Castro,-24.7911,-50.0119,63.12,94,100,10.22,BR,"Oct 21, 2022"
Saint Paul Harbor,57.79,-152.4072,44.11,53,0,4.61,US,"Oct 21, 2022"
Isangel,-19.55,169.2667,73.31,80,87,13.11,VU,"Oct 21, 2022"
Tiksi,71.6872,128.8694,2.82,98,36,7.38,RU,"Oct 21, 2022"
Momignies,50.0271,4.1652,69.55,79,84,12.28,BE,"Oct 21, 2022"
Chernyshevskiy,63.0128,112.4714,26.29,86,100,4.9,RU,"Oct 21, 2022"
Luwuk,-0.9516,122.7875,79.47,86,98,0.2,ID,"Oct 21, 2022"
Celestún,20.8667,-90.4,75.9,60,6,5.14,MX,"Oct 21, 2022"
Berlevåg,70.8578,29.0864,32.0,74,100,9.1,NO,"Oct 21, 2022"
Cape Town,-33.9258,18.4232,72.1,53,0,27.63,ZA,"Oct 21, 2022"
Aksu,41.1231,80.2644,57.78,30,0,3.27,CN,"Oct 21, 2022"
Hambantota,6.1241,81.1185,77.34,100,100,5.75,LK,"Oct 21, 2022"
Esim,4.8699,-2.2405,82.78,69,87,8.99,GH,"Oct 21, 2022"
Paraíso,9.8383,-83.8656,70.41,81,100,1.88,CR,"Oct 21, 2022"
St. George's,12.0564,-61.7485,82.99,75,47,6.51,GD,"Oct 21, 2022"
Kavieng,-2.5744,150.7967,81.93,73,51,7.0,PG,"Oct 21, 2022"
Grindavik,63.8424,-22.4338,43.27,65,0,6.91,IS,"Oct 21, 2022"
Bairiki Village,1.3292,172.9752,80.6,78,20,5.75,KI,"Oct 21, 2022"
Kiryat Gat,31.61,34.7642,80.4,100,1,13.76,IL,"Oct 21, 2022"
Yellowknife,62.456,-114.3525,26.67,71,55,7.78,CA,"Oct 21, 2022"
Tegul'det,57.3064,88.1667,38.64,82,89,8.41,RU,"Oct 21, 2022"
Aripuanã,-9.1667,-60.6333,90.25,52,100,2.48,BR,"Oct 21, 2022"
Jalu,29.0331,21.5482,80.37,32,68,7.43,LY,"Oct 21, 2022"
Vega de Alatorre,20.0333,-96.6333,72.54,82,99,0.65,MX,"Oct 21, 2022"
Yeola,20.0333,74.4833,75.87,73,25,9.28,IN,"Oct 21, 2022"
Terme,41.2092,36.9739,57.13,73,73,4.94,TR,"Oct 21, 2022"
Lata,40.1629,-8.3327,67.91,72,100,9.86,PT,"Oct 21, 2022"
Cabo San Lucas,22.8909,-109.9124,79.52,84,47,6.82,MX,"Oct 21, 2022"
Saint George,37.1041,-113.5841,52.39,40,0,0.0,US,"Oct 21, 2022"
Alexandria,31.2156,29.9553,73.71,62,1,12.84,EG,"Oct 21, 2022"
Arraial do Cabo,-22.9661,-42.0278,76.24,77,97,18.28,BR,"Oct 21, 2022"
Hong Kong,22.2855,114.1577,78.19,76,100,8.99,HK,"Oct 21, 2022"
Tazovsky,67.4667,78.7,33.39,98,100,16.6,RU,"Oct 21, 2022"
Cedar City,37.6775,-113.0619,50.4,64,0,3.44,US,"Oct 21, 2022"
Airai,-8.9266,125.4092,64.29,90,50,0.09,TL,"Oct 21, 2022"
Chui,-33.6971,-53.4616,63.37,86,100,11.16,UY,"Oct 21, 2022"
Pran Buri,12.3847,99.9098,81.9,99,99,4.09,TH,"Oct 21, 2022"
Kapaa,22.0752,-159.319,78.78,86,100,13.8,US,"Oct 21, 2022"
Micoud,13.8167,-60.9,85.98,74,20,18.41,LC,"Oct 21, 2022"
Khatanga,71.9667,102.5,7.09,94,86,3.27,RU,"Oct 21, 2022"
Vangaindrano,-23.35,47.6,74.89,67,17,10.89,MG,"Oct 21, 2022"
San Cristobal,7.7669,-72.225,79.92,59,34,1.54,VE,"Oct 21, 2022"
Baykit,61.67,96.37,30.65,93,59,3.29,RU,"Oct 21, 2022"
Dikson,73.5069,80.5464,32.99,88,100,11.72,RU,"Oct 21, 2022"
Vung Tau,10.346,107.0843,81.14,80,83,16.44,VN,"Oct 21, 2022"
Upernavik,72.7868,-56.1549,14.56,71,97,9.73,GL,"Oct 21, 2022"
Kempten (Allgäu),47.7267,10.3139,60.78,96,100,4.52,DE,"Oct 21, 2022"
Luganville,-15.5333,167.1667,77.61,86,83,9.73,VU,"Oct 21, 2022"
Deniliquin,-35.5333,144.9667,61.03,94,94,6.33,AU,"Oct 21, 2022"
Novo Aripuanã,-5.1206,-60.3797,92.84,49,100,2.71,BR,"Oct 21, 2022"
Saskylakh,71.9167,114.0833,10.33,97,66,4.45,RU,"Oct 21, 2022"
Souillac,-20.5167,57.5167,73.06,76,39,12.15,MU,"Oct 21, 2022"
Saint-Philippe,-21.3585,55.7679,74.79,82,49,11.48,RE,"Oct 21, 2022"
Los Llanos de Aridane,28.6585,-17.9182,74.95,80,20,5.01,ES,"Oct 21, 2022"
Trairi,-3.2778,-39.2689,87.26,50,100,17.9,BR,"Oct 21, 2022"
Wasilla,61.5814,-149.4394,37.06,97,100,0.0,US,"Oct 21, 2022"
Avera,33.194,-82.5271,53.38,36,0,4.05,US,"Oct 21, 2022"
Bobcaygeon,44.5462,-78.542,45.88,72,25,11.21,CA,"Oct 21, 2022"
Bad Dürrheim,48.0167,8.5333,59.11,91,100,8.72,DE,"Oct 21, 2022"
Mariehamn,60.0973,19.9348,44.46,81,0,3.44,AX,"Oct 21, 2022"
Bambous Virieux,-20.3428,57.7575,75.22,78,27,12.37,MU,"Oct 21, 2022"
Thompson,55.7435,-97.8558,36.18,73,100,12.93,CA,"Oct 21, 2022"
Bodden Town,19.2833,-81.25,79.0,89,20,4.61,KY,"Oct 21, 2022"
Katsuura,35.1333,140.3,68.09,71,42,15.01,JP,"Oct 21, 2022"
Mangai,-4.05,19.5333,82.44,64,100,1.41,CD,"Oct 21, 2022"
Mākum,27.5,95.45,68.88,86,0,2.57,IN,"Oct 21, 2022"
Onoda,34.0014,131.1836,65.28,80,100,2.42,JP,"Oct 21, 2022"
Saint-Pierre,-21.3393,55.4781,74.88,73,100,17.27,RE,"Oct 21, 2022"
Guerrero Negro,27.9769,-114.0611,67.93,89,14,3.94,MX,"Oct 21, 2022"
Tuatapere,-46.1333,167.6833,37.09,91,5,3.94,NZ,"Oct 21, 2022"
Tommot,58.9564,126.2925,27.01,96,100,7.2,RU,"Oct 21, 2022"
Seydi,39.4816,62.9137,73.36,15,100,9.6,TM,"Oct 21, 2022"
Leningradskiy,69.3833,178.4167,27.0,98,100,4.63,RU,"Oct 21, 2022"
Departamento de Maldonado,-34.6667,-54.9167,64.22,68,94,10.02,UY,"Oct 21, 2022"
Dongtai,32.8523,120.3095,62.96,84,73,5.82,CN,"Oct 21, 2022"
Namatanai,-3.6667,152.4333,79.43,79,60,2.08,PG,"Oct 21, 2022"
Hermanus,-34.4187,19.2345,69.8,61,5,13.62,ZA,"Oct 21, 2022"
Sitka,57.0531,-135.33,46.29,87,100,8.05,US,"Oct 21, 2022"
Kassiopi,39.7886,19.9186,74.84,70,0,3.44,GR,"Oct 21, 2022"
Esperance,-33.8667,121.9,57.31,78,100,6.89,AU,"Oct 21, 2022"
Asău,46.4333,26.4,51.28,42,0,4.0,RO,"Oct 21, 2022"
Lázaro Cárdenas,17.9583,-102.2,76.5,84,100,4.09,MX,"Oct 21, 2022"
Abnūb,27.2696,31.1511,84.49,25,0,14.65,EG,"Oct 21, 2022"
Severo-Kuril'sk,50.6789,156.125,40.91,74,53,15.79,RU,"Oct 21, 2022"
New Norfolk,-42.7826,147.0587,62.1,83,100,2.59,AU,"Oct 21, 2022"
Sisimiut,66.9395,-53.6735,38.57,88,100,28.88,GL,"Oct 21, 2022"
Tagbac,7.089,125.1567,72.39,94,100,3.33,PH,"Oct 21, 2022"
Portland,45.5234,-122.6762,51.75,86,75,4.61,US,"Oct 21, 2022"
Grenfell,-33.9,148.1667,59.45,94,25,5.32,AU,"Oct 21, 2022"
Nizwá,22.9333,57.5333,86.27,12,0,5.46,OM,"Oct 21, 2022"
Taketa,32.9652,131.3785,61.79,94,100,3.02,JP,"Oct 21, 2022"
Maumere,-8.6199,122.2111,81.77,81,23,3.13,ID,"Oct 21, 2022"
Anadyr,64.75,177.4833,26.58,91,100,16.64,RU,"Oct 21, 2022"
Inta,66.0317,60.1659,31.26,97,100,19.93,RU,"Oct 21, 2022"
Boralday,43.3578,76.8594,56.52,36,21,2.35,KZ,"Oct 21, 2022"
Praia da Vitória,38.7333,-27.0667,67.75,70,79,17.45,PT,"Oct 21, 2022"
Usinsk,65.9939,57.5281,32.34,98,100,19.73,RU,"Oct 21, 2022"
Ust-Maya,60.4167,134.5333,7.27,99,76,1.36,RU,"Oct 21, 2022"
Sikasso,10.9167,-7.0,93.79,32,26,4.16,ML,"Oct 21, 2022"
Tori-Fatehpur,25.45,79.1333,80.22,40,0,2.84,IN,"Oct 21, 2022"
Pahrump,36.2083,-115.9839,50.05,32,0,4.61,US,"Oct 21, 2022"
Ubatuba,-23.4339,-45.0711,80.11,73,100,4.09,BR,"Oct 21, 2022"
Lagunas,-5.2269,-75.6753,85.68,59,100,2.86,PE,"Oct 21, 2022"
Constitución,-35.3333,-72.4167,58.37,70,13,9.04,CL,"Oct 21, 2022"
Lodja,-3.4833,23.4333,89.28,45,94,1.77,CD,"Oct 21, 2022"
Meulaboh,4.1363,96.1285,75.07,90,100,4.36,ID,"Oct 21, 2022"
Svetlaya,46.5389,138.3297,45.46,81,64,5.66,RU,"Oct 21, 2022"
Malanje,-9.5402,16.341,82.22,43,100,2.66,AO,"Oct 21, 2022"
La Ronge,55.1001,-105.2842,42.44,56,100,12.19,CA,"Oct 21, 2022"
Iqaluit,63.7506,-68.5145,34.38,88,90,23.0,CA,"Oct 21, 2022"
Mīnāb,27.1467,57.0801,87.69,38,0,5.95,IR,"Oct 21, 2022"
Yangi Marg`ilon,40.4272,71.7189,61.52,51,22,2.3,UZ,"Oct 21, 2022"
Champerico,14.3,-91.9167,78.53,82,78,4.5,GT,"Oct 21, 2022"
Alice Springs,-23.7,133.8833,69.35,37,0,0.0,AU,"Oct 21, 2022"
Mo i Rana,66.3128,14.1428,44.33,88,40,3.44,NO,"Oct 21, 2022"
Makakilo City,21.3469,-158.0858,77.32,85,20,8.05,US,"Oct 21, 2022"
Shimoda,34.6667,138.95,63.1,73,85,10.89,JP,"Oct 21, 2022"
Kieta,-6.2167,155.6333,78.1,82,100,2.46,PG,"Oct 21, 2022"
Fayaoué,-20.65,166.5333,74.55,76,100,20.89,NC,"Oct 21, 2022"
Attock,33.7695,72.3611,73.17,32,0,3.13,PK,"Oct 21, 2022"
Pita,10.8333,-12.5833,88.25,52,14,1.54,GN,"Oct 21, 2022"
Koslan,63.4564,48.8989,32.95,84,100,10.87,RU,"Oct 21, 2022"
Villa María,-32.4075,-63.2402,79.83,34,5,6.91,AR,"Oct 21, 2022"
Dingle,10.9995,122.6711,77.61,89,83,5.28,PH,"Oct 21, 2022"
Port Elizabeth,-33.918,25.5701,69.1,94,100,5.75,ZA,"Oct 21, 2022"
Beringovskiy,63.05,179.3167,32.85,97,99,3.53,RU,"Oct 21, 2022"
Port-Gentil,-0.7193,8.7815,78.89,82,29,9.75,GA,"Oct 21, 2022"
Provincia di Ancona,43.55,13.1667,74.37,52,75,3.44,IT,"Oct 21, 2022"
Kutum,14.2,24.6667,87.73,19,41,7.85,SD,"Oct 21, 2022"
Waipawa,-41.4122,175.5153,37.74,79,3,4.18,NZ,"Oct 21, 2022"
Amazar,53.858,120.875,26.24,90,79,2.91,RU,"Oct 21, 2022"
Raebareli,26.2167,81.2333,76.48,54,0,4.7,IN,"Oct 21, 2022"
Murgab,37.4966,61.9714,78.21,15,100,8.5,TM,"Oct 21, 2022"
Te Anau,-45.4167,167.7167,34.34,95,24,1.1,NZ,"Oct 21, 2022"
Muromtsevo,56.3724,75.2418,42.46,94,100,4.59,RU,"Oct 21, 2022"
Araouane,18.9048,-3.5265,96.51,12,96,9.66,ML,"Oct 21, 2022"
Cidreira,-30.1811,-50.2056,71.96,74,42,13.22,BR,"Oct 21, 2022"
Tenosique,17.4833,-91.4333,70.95,92,100,1.14,MX,"Oct 21, 2022"
Levice,48.2156,18.6071,54.5,37,100,12.41,SK,"Oct 21, 2022"
Monte Alegre de Minas,-18.8706,-48.8808,76.46,63,99,11.86,BR,"Oct 21, 2022"
Bud,39.447,-86.1758,54.36,53,100,13.24,US,"Oct 21, 2022"
Nemuro,43.3236,145.575,59.07,76,96,15.88,JP,"Oct 21, 2022"
Ribeira Brava,32.65,-17.0667,77.72,93,100,3.33,PT,"Oct 21, 2022"
Norman Wells,65.282,-126.8329,26.96,94,100,1.23,CA,"Oct 21, 2022"
Santo André,-23.6639,-46.5383,75.13,80,100,19.84,BR,"Oct 21, 2022"
Bubaque,11.2833,-15.8333,81.91,70,33,3.78,GW,"Oct 21, 2022"
Mossamedes,-15.1961,12.1522,72.59,68,18,11.36,AO,"Oct 21, 2022"
Waingapu,-9.6567,120.2641,82.51,80,71,3.38,ID,"Oct 21, 2022"
Tiznit Province,29.5833,-9.5,89.37,14,6,13.85,MA,"Oct 21, 2022"
Nukus,42.4531,59.6103,69.78,32,88,0.0,UZ,"Oct 21, 2022"
Santa Eulalia,-11.85,-76.6833,36.0,34,80,8.01,PE,"Oct 21, 2022"
Shimanovsk,52.0,127.7,32.11,61,100,5.99,RU,"Oct 21, 2022"
Nikolskoye,59.7035,30.7861,44.49,92,100,2.71,RU,"Oct 21, 2022"
Weiser,44.251,-116.9693,46.87,57,35,2.26,US,"Oct 21, 2022"
Keflavik,64.0049,-22.5624,43.23,65,0,6.91,IS,"Oct 21, 2022"
Tilichiki,60.4667,166.1,14.79,88,28,5.46,RU,"Oct 21, 2022"
Saurimo,-9.6608,20.3916,89.33,29,88,5.35,AO,"Oct 21, 2022"
Krasnomayskiy,57.6194,34.4099,41.38,88,100,2.55,RU,"Oct 21, 2022"
Selizharovo,56.8519,33.4487,41.54,89,100,3.91,RU,"Oct 21, 2022"
Ulladulla,-35.35,150.4667,63.25,97,100,9.22,AU,"Oct 21, 2022"
Altay,47.8667,88.1167,39.94,62,25,6.33,CN,"Oct 21, 2022"
Tiarei,-17.5333,-149.3333,77.27,80,19,16.89,PF,"Oct 21, 2022"
Karoi,-16.8099,29.6925,82.11,29,74,11.25,ZW,"Oct 21, 2022"
Chalmette,29.9427,-89.9634,69.01,56,0,8.05,US,"Oct 21, 2022"
Vila Franca do Campo,37.7167,-25.4333,68.41,60,57,12.28,PT,"Oct 21, 2022"
Orlik,52.5178,99.825,27.93,77,99,4.41,RU,"Oct 21, 2022"
Tura,25.5198,90.2201,69.19,82,0,5.12,IN,"Oct 21, 2022"
College,64.8569,-147.8028,34.59,94,100,8.05,US,"Oct 21, 2022"
Boa Vista,2.8197,-60.6733,88.23,58,100,8.1,BR,"Oct 21, 2022"
Cockburn Town,21.4612,-71.1419,83.53,75,97,15.46,TC,"Oct 21, 2022"
Mormugao,15.4,73.8,81.1,81,41,5.23,IN,"Oct 21, 2022"
Point Fortin,10.1833,-61.6833,87.89,76,8,5.23,TT,"Oct 21, 2022"
Zambezi,-13.5432,23.1047,92.52,19,86,6.64,ZM,"Oct 21, 2022"
Hasaki,35.7333,140.8333,63.0,66,50,18.05,JP,"Oct 21, 2022"
Freeport,40.6576,-73.5832,59.05,65,0,1.01,US,"Oct 21, 2022"
Alyangula,-13.8483,136.4192,82.9,82,40,11.54,AU,"Oct 21, 2022"
Hong Gai,20.956,107.0946,71.51,85,99,3.51,VN,"Oct 21, 2022"
Lüderitz,-26.6481,15.1594,70.07,61,4,30.74,NA,"Oct 21, 2022"
Aklavik,68.2191,-135.0107,18.39,97,100,1.61,CA,"Oct 21, 2022"
Aitape,-3.1374,142.3475,78.19,86,100,1.68,PG,"Oct 21, 2022"
Destin,30.3935,-86.4958,62.6,57,0,9.22,US,"Oct 21, 2022"
Gurupá,-1.405,-51.64,92.46,46,50,3.85,BR,"Oct 21, 2022"
Havøysund,70.9963,24.6622,35.83,72,100,10.31,NO,"Oct 21, 2022"
Tandil,-37.3217,-59.1332,60.69,34,16,13.76,AR,"Oct 21, 2022"
Baruun-Urt,46.6806,113.2792,33.44,68,99,7.25,MN,"Oct 21, 2022"
Jaqué,7.5175,-78.1703,79.56,84,74,6.35,PA,"Oct 21, 2022"
Flinders,-34.5833,150.8552,67.17,90,100,4.0,AU,"Oct 21, 2022"
São João da Barra,-21.6403,-41.0511,79.29,70,50,20.54,BR,"Oct 21, 2022"
Mossendjo,-2.9506,12.7261,75.22,87,100,1.9,CG,"Oct 21, 2022"
Belaya Gora,68.5333,146.4167,1.54,91,66,5.03,RU,"Oct 21, 2022"
Khani,41.9563,42.9566,45.97,90,100,1.97,GE,"Oct 21, 2022"
Banda Aceh,5.5577,95.3222,79.43,78,100,14.65,ID,"Oct 21, 2022"
Port Hardy,50.6996,-127.4199,48.47,86,100,7.72,CA,"Oct 21, 2022"
Santa Isabel Rio Negro,-0.4139,-65.0192,74.1,98,100,1.16,BR,"Oct 21, 2022"
Lorengau,-2.0226,147.2712,81.12,76,24,4.79,PG,"Oct 21, 2022"
Mana,5.6592,-53.7767,86.92,64,46,6.71,GF,"Oct 21, 2022"
Bonthe,7.5264,-12.505,81.57,77,58,5.32,SL,"Oct 21, 2022"
Horqueta,-23.3428,-57.0597,76.8,59,4,7.29,PY,"Oct 21, 2022"
Bambanglipuro,-7.95,110.2833,75.7,94,100,3.27,ID,"Oct 21, 2022"
Alice,27.7523,-98.0697,63.55,91,0,5.75,US,"Oct 21, 2022"
Luena,-11.7833,19.9167,86.05,28,90,6.02,AO,"Oct 21, 2022"
High Level,58.5169,-117.136,37.51,100,100,2.3,CA,"Oct 21, 2022"
Codrington,-38.2667,141.9667,59.4,99,100,4.21,AU,"Oct 21, 2022"
Tubmanburg,6.8708,-10.8172,86.49,62,77,5.35,LR,"Oct 21, 2022"
Eyl,7.9803,49.8164,80.91,73,63,17.49,SO,"Oct 21, 2022"
Maniitsoq,65.4167,-52.9,37.51,92,100,41.58,GL,"Oct 21, 2022"
Nantucket,41.2835,-70.0995,62.74,67,8,3.53,US,"Oct 21, 2022"
Puerto Berrío,6.4916,-74.4033,82.54,67,47,0.76,CO,"Oct 21, 2022"
Eberswalde,52.8349,13.8195,60.31,70,100,5.66,DE,"Oct 21, 2022"
Mbumi,-7.9058,39.2105,81.72,50,82,9.98,TZ,"Oct 21, 2022"
Lompoc,34.6391,-120.4579,57.52,97,100,3.44,US,"Oct 21, 2022"
Ukiah,39.1502,-123.2078,59.38,60,61,1.88,US,"Oct 21, 2022"
Camopi,3.1655,-52.3158,92.53,42,82,3.58,GF,"Oct 21, 2022"
Vostok,46.4856,135.8833,42.15,92,99,4.14,RU,"Oct 21, 2022"
Saldanha,-33.0117,17.9442,63.75,67,9,29.59,ZA,"Oct 21, 2022"
Ashti,19.3833,76.2333,73.65,84,7,10.04,IN,"Oct 21, 2022"
Bandarbeyla,9.4942,50.8122,79.36,81,9,16.62,SO,"Oct 21, 2022"
Nipawin,53.3668,-104.0009,40.98,60,100,9.31,CA,"Oct 21, 2022"
Lichuan,30.3,108.85,55.06,69,6,0.47,CN,"Oct 21, 2022"
Vila Velha,-20.3297,-40.2925,78.94,78,57,13.0,BR,"Oct 21, 2022"
Kisi,9.0833,3.85,89.38,42,100,5.41,NG,"Oct 21, 2022"
Umba,66.6871,34.3429,33.82,74,18,4.79,RU,"Oct 21, 2022"
Yumen,40.2833,97.2,46.09,35,0,5.53,CN,"Oct 21, 2022"
Dunedin,-45.8742,170.5036,42.8,83,7,1.99,NZ,"Oct 21, 2022"
Denpasar,-8.65,115.2167,80.26,94,40,2.3,ID,"Oct 21, 2022"
Bārmer,25.75,71.3833,85.57,18,0,4.09,IN,"Oct 21, 2022"
Husavik,66.0449,-17.3389,33.49,81,45,7.07,IS,"Oct 21, 2022"
Longaví,-35.9667,-71.6833,59.25,60,45,8.99,CL,"Oct 21, 2022"
Grand Gaube,-20.0064,57.6608,75.38,72,3,5.01,MU,"Oct 21, 2022"
Buraidah,26.326,43.975,88.56,10,0,4.36,SA,"Oct 21, 2022"
Bumba,2.1833,22.4667,74.21,93,100,2.84,CD,"Oct 21, 2022"
Lavrentiya,65.5833,-171.0,34.52,94,100,8.5,RU,"Oct 21, 2022"
Puerto Escondido,15.85,-97.0667,77.83,73,40,6.91,MX,"Oct 21, 2022"
Ust'-Kan,50.9276,84.761,35.62,79,100,6.4,RU,"Oct 21, 2022"
Okhotsk,59.3833,143.3,25.97,62,98,11.56,RU,"Oct 21, 2022"
Jumla,29.2747,82.1838,44.01,88,8,4.14,NP,"Oct 21, 2022"
Manokwari,-0.8667,134.0833,78.67,84,92,6.67,ID,"Oct 21, 2022"
Ostrovnoy,68.0531,39.5131,34.74,67,100,19.22,RU,"Oct 21, 2022"
Longonjo,-12.9067,15.2533,77.43,46,86,0.47,AO,"Oct 21, 2022"
Tuim,54.3417,89.9261,38.59,81,90,5.28,RU,"Oct 21, 2022"
Huarmey,-10.0681,-78.1522,63.82,77,83,7.61,PE,"Oct 21, 2022"
Takoradze,4.8845,-1.7554,83.16,70,97,10.49,GH,"Oct 21, 2022"
Leshukonskoye,64.8989,45.7622,33.15,93,98,12.24,RU,"Oct 21, 2022"
Nuuk,64.1835,-51.7216,45.21,81,75,43.73,GL,"Oct 21, 2022"
Faya,18.3851,42.4509,70.32,36,4,4.97,SA,"Oct 21, 2022"
Bharwāri,25.55,81.5,77.04,55,0,3.62,IN,"Oct 21, 2022"
Sola,-13.8833,167.55,80.76,78,93,17.94,VU,"Oct 21, 2022"
Kralendijk,12.15,-68.2667,85.98,79,40,13.8,BQ,"Oct 21, 2022"
Olafsvik,64.8945,-23.7142,40.14,74,100,10.38,IS,"Oct 21, 2022"
Port Shepstone,-30.7414,30.455,72.95,80,98,11.68,ZA,"Oct 21, 2022"
Hofn,64.2539,-15.2082,46.42,61,75,5.75,IS,"Oct 21, 2022"
Dubrovytsya,51.5744,26.565,47.53,61,92,7.72,UA,"Oct 21, 2022"
Pandegelang,-6.31,106.1058,73.81,92,100,2.21,ID,"Oct 21, 2022"
Lashio,22.9333,97.75,70.07,80,32,0.54,MM,"Oct 21, 2022"
Cairns,-16.9167,145.7667,76.06,97,100,2.3,AU,"Oct 21, 2022"
Aksarka,66.5606,67.7975,30.79,97,100,8.61,RU,"Oct 21, 2022"
Beloha,-25.1667,45.05,86.81,41,5,11.48,MG,"Oct 21, 2022"
Huesca,42.1362,-0.4087,70.11,78,20,5.75,ES,"Oct 21, 2022"
Santarém,-2.4431,-54.7083,91.71,47,99,5.35,BR,"Oct 21, 2022"
Samarskoye,46.9336,39.6814,50.85,46,89,11.48,RU,"Oct 21, 2022"
Safranbolu,41.2508,32.6942,53.47,47,29,4.32,TR,"Oct 21, 2022"
Staraya Kulatka,52.7167,47.6167,40.71,66,23,9.57,RU,"Oct 21, 2022"
Ladário,-19.0047,-57.6017,80.78,67,100,3.44,BR,"Oct 21, 2022"
Fortuna,40.5982,-124.1573,51.98,90,100,3.44,US,"Oct 21, 2022"
Mountain Home,43.133,-115.6912,38.68,52,0,3.44,US,"Oct 21, 2022"
Kita,13.0349,-9.4895,97.63,24,7,4.59,ML,"Oct 21, 2022"
Kaifeng,34.7911,114.3483,65.25,30,0,3.18,CN,"Oct 21, 2022"
Benjamín Aceval,-24.9667,-57.5667,77.14,58,0,6.67,PY,"Oct 21, 2022"
Buin,-33.7333,-70.75,75.43,37,100,2.62,CL,"Oct 21, 2022"
Shache,38.4167,77.2406,59.59,19,0,4.12,CN,"Oct 21, 2022"
Korla,41.7597,86.1469,54.54,28,0,5.91,CN,"Oct 21, 2022"
Biysk,52.5364,85.2072,47.19,77,100,6.17,RU,"Oct 21, 2022"
Xichang,27.8964,102.2634,61.03,82,1,2.8,CN,"Oct 21, 2022"
Laguna,38.421,-121.4238,68.09,78,0,3.44,US,"Oct 21, 2022"
Roebourne,-20.7833,117.1333,77.63,65,0,15.75,AU,"Oct 21, 2022"
Pangnirtung,66.1451,-65.7125,29.48,95,100,8.03,CA,"Oct 21, 2022"
Parry Sound,45.3501,-80.033,44.8,72,100,11.74,CA,"Oct 21, 2022"
Yerbogachën,61.2767,108.0108,29.73,83,100,3.62,RU,"Oct 21, 2022"
Shahreza,32.0339,51.8794,67.64,15,0,3.98,IR,"Oct 21, 2022"
Srednekolymsk,67.45,153.6833,14.32,95,100,12.91,RU,"Oct 21, 2022"
Paragould,36.0584,-90.4973,58.08,58,3,9.01,US,"Oct 21, 2022"
Karratha,-20.7377,116.8463,76.33,70,0,16.33,AU,"Oct 21, 2022"
City of San Pedro,14.35,121.0167,82.35,86,45,4.47,PH,"Oct 21, 2022"
Seddon,-37.8068,144.8916,65.86,91,75,5.75,AU,"Oct 21, 2022"
Seymchan,62.8833,152.4333,3.42,91,100,1.45,RU,"Oct 21, 2022"
Darhan,49.4867,105.9228,37.0,44,18,7.92,MN,"Oct 21, 2022"
Port Hedland,-20.3167,118.5667,78.85,78,0,14.97,AU,"Oct 21, 2022"
Leninsk,48.7119,45.1994,48.78,72,99,17.36,RU,"Oct 21, 2022"
Gouré,13.9835,10.2704,93.4,12,96,8.99,NE,"Oct 21, 2022"
Port Augusta,-32.5,137.7667,62.1,86,0,6.26,AU,"Oct 21, 2022"
Ouésso,1.6136,16.0517,78.57,89,87,3.15,CG,"Oct 21, 2022"
Kodarmā,24.4667,85.6,70.47,65,0,2.98,IN,"Oct 21, 2022"
Nampa,43.5407,-116.5635,54.36,58,0,3.44,US,"Oct 21, 2022"
Neuquén,-38.9516,-68.0591,49.89,76,75,9.22,AR,"Oct 21, 2022"
Nouadhibou,20.931,-17.0347,73.06,78,1,18.19,MR,"Oct 21, 2022"
Kupang,-10.1667,123.5833,82.29,77,56,4.68,ID,"Oct 21, 2022"
Carquefou,47.2982,-1.4902,70.14,66,0,14.97,FR,"Oct 21, 2022"
Isla Vista,34.4133,-119.861,50.36,60,1,2.51,US,"Oct 21, 2022"
Emerald,-23.5333,148.1667,63.34,87,100,7.14,AU,"Oct 21, 2022"
Ginir,7.1333,40.7,63.14,80,76,6.42,ET,"Oct 21, 2022"
Westport,41.1415,-73.3579,57.9,65,0,6.91,US,"Oct 21, 2022"
Viedma,-40.8135,-62.9967,55.56,37,99,18.9,AR,"Oct 21, 2022"
Sakakah,29.9697,40.2064,90.09,17,51,14.09,SA,"Oct 21, 2022"
Yulara,-25.2406,130.9889,79.11,18,72,5.88,AU,"Oct 21, 2022"
Gornopravdinsk,60.05,69.9,34.23,78,100,8.01,RU,"Oct 21, 2022"
Margate,51.3813,1.3862,67.3,73,18,8.01,GB,"Oct 21, 2022"
Katwa,23.6399,88.128,75.79,63,0,6.76,IN,"Oct 21, 2022"
Banikoara,11.2985,2.4386,95.7,21,9,5.5,BJ,"Oct 21, 2022"
Hammerfest,70.6634,23.6821,36.05,69,75,4.61,NO,"Oct 21, 2022"
Nombre de Dios,23.85,-104.2333,57.31,59,1,1.34,MX,"Oct 21, 2022"
Nome,64.5011,-165.4064,37.47,87,100,0.0,US,"Oct 21, 2022"
Honningsvåg,70.9821,25.9704,35.35,64,100,11.5,NO,"Oct 21, 2022"
Kesinga,20.2,83.2333,69.8,71,0,2.82,IN,"Oct 21, 2022"
Wodonga,-36.1167,146.8833,62.6,100,75,0.0,AU,"Oct 21, 2022"
Charters Towers,-20.1,146.2667,71.71,84,0,7.11,AU,"Oct 21, 2022"
Santa Marta,11.2408,-74.199,86.9,70,10,1.99,CO,"Oct 21, 2022"
Bodrum,37.0383,27.4292,78.73,42,0,13.11,TR,"Oct 21, 2022"
Matamoros,25.5333,-103.25,57.31,54,0,0.0,MX,"Oct 21, 2022"
Bhuj,23.2667,69.6667,85.55,31,0,9.08,IN,"Oct 21, 2022"
Savannah Bight,16.45,-85.85,81.1,74,97,6.06,HN,"Oct 21, 2022"
Copiapó,-27.3667,-70.3333,53.29,33,0,5.01,CL,"Oct 21, 2022"
Būrewāla,30.1667,72.65,77.94,25,0,7.9,PK,"Oct 21, 2022"
Sjøvegan,68.8726,17.8474,42.21,98,100,6.6,NO,"Oct 21, 2022"
Roswell,34.0232,-84.3616,53.96,62,0,3.44,US,"Oct 21, 2022"
Kazachinskoye,57.6953,93.2761,38.53,89,100,5.86,RU,"Oct 21, 2022"
San Patricio,28.017,-97.5169,72.88,69,0,9.84,US,"Oct 21, 2022"
North Battleford,52.7834,-108.2847,38.41,54,100,6.58,CA,"Oct 21, 2022"
Great Falls,47.5002,-111.3008,59.41,49,0,23.02,US,"Oct 21, 2022"
Klaksvík,62.2266,-6.589,47.32,73,100,16.53,FO,"Oct 21, 2022"
Kazanka,47.8462,32.8218,50.16,39,3,4.7,UA,"Oct 21, 2022"
Bucerías,20.75,-105.3333,76.75,86,99,4.14,MX,"Oct 21, 2022"
Beian,63.6559,9.5683,51.01,66,0,11.5,NO,"Oct 21, 2022"
Tekirdağ,40.978,27.5085,60.15,42,0,15.64,TR,"Oct 21, 2022"
Khonsa,27.0167,95.5667,64.04,83,0,4.18,IN,"Oct 21, 2022"
Sioux Lookout,50.1001,-91.917,42.87,93,75,6.91,CA,"Oct 21, 2022"
Port Macquarie,-31.4333,152.9167,65.89,88,100,16.46,AU,"Oct 21, 2022"
Kāmyārān,34.7956,46.9355,68.92,24,26,16.87,IR,"Oct 21, 2022"
Imbituba,-28.24,-48.6703,76.86,73,15,6.08,BR,"Oct 21, 2022"
Pāsighāt,28.0667,95.3333,70.57,69,0,4.54,IN,"Oct 21, 2022"
Kalispell,48.1958,-114.3129,55.44,47,100,12.66,US,"Oct 21, 2022"
Yangambi,0.8102,24.4336,72.99,97,100,2.95,CD,"Oct 21, 2022"
Anito,12.4497,125.2886,80.42,88,92,6.29,PH,"Oct 21, 2022"
Fairbanks,64.8378,-147.7164,34.61,94,100,8.05,US,"Oct 21, 2022"
Ust-Nera,64.5667,143.2,-2.34,90,100,1.79,RU,"Oct 21, 2022"
Sawtell,-30.3833,153.1,68.02,88,100,10.36,AU,"Oct 21, 2022"
Marovoay,-16.1,46.6333,87.35,39,10,13.8,MG,"Oct 21, 2022"
Flensburg,54.7833,9.4333,57.9,94,100,4.61,DE,"Oct 21, 2022"
Agadez,19.75,10.25,85.19,14,0,13.76,NE,"Oct 21, 2022"
Kahului,20.8947,-156.47,69.82,73,0,4.61,US,"Oct 21, 2022"
Tahoua,14.8888,5.2692,96.35,11,42,7.67,NE,"Oct 21, 2022"
Half Moon Bay,37.4636,-122.4286,57.61,93,100,5.75,US,"Oct 21, 2022"
Pitimbu,-7.4706,-34.8086,81.09,60,96,12.03,BR,"Oct 21, 2022"
Mayya,61.7333,130.2811,25.92,98,100,4.36,RU,"Oct 21, 2022"
Bitung,1.4451,125.1824,77.85,77,55,0.58,ID,"Oct 21, 2022"
Aksha,50.2814,113.2867,30.88,63,100,2.82,RU,"Oct 21, 2022"
Tessalit,20.1986,1.0114,93.72,9,83,10.42,ML,"Oct 21, 2022"
Muisne,0.6,-80.0333,75.36,79,98,9.71,EC,"Oct 21, 2022"
Dukat,62.55,155.55,-4.4,99,95,4.85,RU,"Oct 21, 2022"
Āsosa,10.0667,34.5333,69.03,89,99,1.77,ET,"Oct 21, 2022"
Wamba,8.9333,8.6,85.15,58,100,4.61,NG,"Oct 21, 2022"
Kerman,30.2832,57.0788,72.52,15,34,3.11,IR,"Oct 21, 2022"
Camaná,-16.6228,-72.7111,65.25,74,74,9.35,PE,"Oct 21, 2022"
Eureka,40.8021,-124.1637,52.25,87,5,3.83,US,"Oct 21, 2022"
Mazagão,-0.115,-51.2894,92.21,47,100,5.82,BR,"Oct 21, 2022"
Sørland,67.667,12.6934,44.46,81,75,12.66,NO,"Oct 21, 2022"
Pasinler,39.9803,41.6764,45.59,77,99,5.39,TR,"Oct 21, 2022"
Yamada,39.4667,141.95,56.44,82,93,6.6,JP,"Oct 21, 2022"
Nisibis,37.0778,41.2178,73.6,49,99,8.99,TR,"Oct 21, 2022"
Arawa,-6.2132,155.5367,75.96,88,100,2.08,PG,"Oct 21, 2022"
Ulkan,57.243,107.3223,28.04,93,100,3.38,RU,"Oct 21, 2022"
Samarinda,-0.5,117.15,75.52,96,100,0.51,ID,"Oct 21, 2022"
Sorong,-0.8833,131.25,81.3,80,76,6.2,ID,"Oct 21, 2022"
Kadyy,57.787,43.1903,36.57,71,99,4.41,RU,"Oct 21, 2022"
Saint-Hyacinthe,45.6168,-72.9491,50.18,62,6,11.03,CA,"Oct 21, 2022"
Kangaatsiaq,68.3065,-53.4641,33.75,97,100,10.96,GL,"Oct 21, 2022"
Gizo Government Station,-8.103,156.8419,81.81,78,89,5.41,SB,"Oct 21, 2022"
Ayan,56.45,138.1667,28.87,53,0,12.86,RU,"Oct 21, 2022"
Calamar,10.2511,-74.9146,81.99,78,11,5.35,CO,"Oct 21, 2022"
Concepción de Buenos Aires,19.9667,-103.2667,54.21,84,95,3.22,MX,"Oct 21, 2022"
Henties Bay,-22.116,14.2845,62.42,79,10,13.56,NA,"Oct 21, 2022"
San Luis Río Colorado,32.4631,-114.7767,71.26,34,5,2.06,MX,"Oct 21, 2022"
Poronaysk,49.2167,143.1167,39.56,70,100,4.59,RU,"Oct 21, 2022"
Oistins,13.0667,-59.5333,87.89,66,40,17.27,BB,"Oct 21, 2022"
Tuyen Quang,21.8233,105.2181,66.69,97,72,1.72,VN,"Oct 21, 2022"
Redcliffe,-27.2307,153.0973,70.09,88,75,12.66,AU,"Oct 21, 2022"
Williams Lake,52.1415,-122.1445,31.05,89,83,1.41,CA,"Oct 21, 2022"
Prince Rupert,54.3161,-130.3201,46.49,90,100,7.09,CA,"Oct 21, 2022"
Sovetskiy,61.3614,63.5842,30.97,65,34,11.48,RU,"Oct 21, 2022"
Keuruu,62.2667,24.7,44.78,91,100,3.04,FI,"Oct 21, 2022"
Marawi,7.9986,124.2928,70.07,95,100,1.39,PH,"Oct 21, 2022"
Pyatnitskoye,50.4233,37.8273,43.74,57,6,8.05,RU,"Oct 21, 2022"
Port Lincoln,-34.7333,135.8667,56.66,84,39,3.33,AU,"Oct 21, 2022"
Nadym,65.5333,72.5167,30.56,96,100,13.38,RU,"Oct 21, 2022"
Saint-Paul,-21.0096,55.2707,75.31,77,43,1.54,RE,"Oct 21, 2022"
Mackay,-21.15,149.2,67.68,87,62,4.56,AU,"Oct 21, 2022"
Deyang,31.1302,104.382,69.87,49,3,1.34,CN,"Oct 21, 2022"
Luoyang,34.6836,112.4536,67.21,42,0,3.29,CN,"Oct 21, 2022"
Xam Nua,20.4197,104.0439,63.1,99,96,1.83,LA,"Oct 21, 2022"
Abu Samrah,35.3029,37.1841,77.54,35,8,13.58,SY,"Oct 21, 2022"
Zhuhai,22.2769,113.5678,76.78,78,20,9.22,CN,"Oct 21, 2022"
Barra Patuca,15.8,-84.2833,79.83,84,98,4.94,HN,"Oct 21, 2022"
Mount Isa,-20.7333,139.5,80.2,26,0,6.44,AU,"Oct 21, 2022"
Monroe,43.1501,-77.6831,52.3,50,20,12.66,US,"Oct 21, 2022"
Ekibastuz,51.6667,75.3667,52.9,40,100,10.74,KZ,"Oct 21, 2022"
Naze,28.3667,129.4833,74.37,83,98,17.56,JP,"Oct 21, 2022"
Hlatikulu,-26.9667,31.3167,71.35,60,66,5.95,SZ,"Oct 21, 2022"
Tlacotepec (San Mateo),20.0667,-97.8667,59.68,87,86,1.3,MX,"Oct 21, 2022"
Atambua,-9.1061,124.8925,78.48,82,54,1.77,ID,"Oct 21, 2022"
Atikokan,48.7555,-91.6216,41.02,88,3,7.78,CA,"Oct 21, 2022"
Verkhnyaya Inta,65.9811,60.3094,30.9,97,100,19.48,RU,"Oct 21, 2022"
Rock Sound,24.9,-76.2,80.74,72,96,11.21,BS,"Oct 21, 2022"
Kabul,34.5,69.4167,58.12,18,2,3.87,AF,"Oct 21, 2022"
Asilah,35.465,-6.0348,76.96,68,100,8.63,MA,"Oct 21, 2022"
Atar,20.5169,-13.0499,101.28,10,0,10.27,MR,"Oct 21, 2022"
Nurota,40.5614,65.6886,66.81,16,2,4.18,UZ,"Oct 21, 2022"
Soavinandriana,-19.1667,46.7333,66.83,57,87,6.62,MG,"Oct 21, 2022"
Bereda,43.2686,-7.5406,64.42,83,39,11.74,ES,"Oct 21, 2022"
Muroto-misakicho,33.2833,134.15,69.46,60,99,1.5,JP,"Oct 21, 2022"
Ubari,26.5921,12.7805,78.1,27,3,12.28,LY,"Oct 21, 2022"
Nässjö,57.6531,14.6968,43.72,86,100,6.13,SE,"Oct 21, 2022"
Hanmer Springs,-42.5167,172.8167,36.59,89,3,3.56,NZ,"Oct 21, 2022"
Aljezur,37.3191,-8.8033,67.55,86,100,10.83,PT,"Oct 21, 2022"
San Martín,-33.081,-68.4681,69.93,30,0,17.43,AR,"Oct 21, 2022"
Arman',59.7,150.1667,17.87,62,78,9.84,RU,"Oct 21, 2022"
Helong,42.5397,128.9972,55.24,68,100,9.84,CN,"Oct 21, 2022"
Brandon,27.9378,-82.2859,66.92,68,0,11.99,US,"Oct 21, 2022"
Rolla,37.9514,-91.7713,60.94,46,0,13.8,US,"Oct 21, 2022"
Kashgar,39.4547,75.9797,56.91,23,1,4.12,CN,"Oct 21, 2022"
Nishihara,26.1842,127.7558,78.46,97,75,17.27,JP,"Oct 21, 2022"
Alugan,12.2188,125.4808,81.99,83,91,7.23,PH,"Oct 21, 2022"
Russell,32.3502,-85.1999,56.43,38,0,2.33,US,"Oct 21, 2022"
Orangeburg,33.4918,-80.8557,55.81,72,0,1.01,US,"Oct 21, 2022"
Tambovka,50.0969,128.0489,30.92,52,17,6.87,RU,"Oct 21, 2022"
Mēga,4.05,38.3,65.55,65,98,17.11,ET,"Oct 21, 2022"
Pisco,-13.7,-76.2167,62.65,77,75,5.75,PE,"Oct 21, 2022"
Richards Bay,-28.783,32.0377,79.34,68,81,5.41,ZA,"Oct 21, 2022"
Honiara,-9.4333,159.95,78.51,86,58,2.19,SB,"Oct 21, 2022"
‘Āhuimanu,21.4447,-157.8378,78.51,86,75,8.05,US,"Oct 21, 2022"
Uchiza,-8.4592,-76.4633,80.2,77,96,2.19,PE,"Oct 21, 2022"
Tarakan,3.3,117.6333,78.3,94,20,3.44,ID,"Oct 21, 2022"
Iranshahr,27.2025,60.6848,86.43,10,0,5.48,IR,"Oct 21, 2022"
Zhifang,30.35,114.3167,66.54,57,9,2.84,CN,"Oct 21, 2022"
Manta,-0.95,-80.7333,71.38,88,100,10.36,EC,"Oct 21, 2022"
Wexford,52.3342,-6.4575,60.22,93,55,8.99,IE,"Oct 21, 2022"
Vestmanna,62.1564,-7.1664,45.52,76,20,5.75,FO,"Oct 21, 2022"
Baiyin,36.5583,104.2081,49.91,35,38,4.63,CN,"Oct 21, 2022"
Caravelas,-17.7125,-39.2481,82.0,61,100,11.07,BR,"Oct 21, 2022"
Hastings,50.8552,0.5729,67.32,67,26,21.09,GB,"Oct 21, 2022"
Mažeikiai,56.3167,22.3333,46.27,61,100,8.16,LT,"Oct 21, 2022"
Bentiu,9.2333,29.8333,80.33,74,96,7.74,SS,"Oct 21, 2022"
Likasi,-10.9814,26.7333,91.63,17,35,5.08,CD,"Oct 21, 2022"
Bima,-8.4667,118.7167,81.84,77,100,1.14,ID,"Oct 21, 2022"
Wenling,28.3669,121.36,67.32,86,94,6.06,CN,"Oct 21, 2022"
Dunda,-8.1167,34.25,92.44,16,93,2.73,TZ,"Oct 21, 2022"
Smirnykh,49.75,142.8333,35.33,77,100,3.65,RU,"Oct 21, 2022"
Amapá,1.0,-52.0,91.74,43,94,4.0,BR,"Oct 21, 2022"
Boueni,-12.9025,45.0761,82.38,67,12,6.38,YT,"Oct 21, 2022"
Bintulu,3.1667,113.0333,78.98,83,100,1.41,MY,"Oct 21, 2022"
Belmonte,-15.8631,-38.8828,80.64,63,93,8.77,BR,"Oct 21, 2022"
Sungai Penuh,-2.0833,101.3833,66.09,98,100,1.25,ID,"Oct 21, 2022"
Sal Rei,16.1833,-22.9167,84.4,70,20,11.5,CV,"Oct 21, 2022"
Karasburg,-28.0167,18.75,80.6,35,98,18.92,NA,"Oct 21, 2022"
Presidencia Roque Sáenz Peña,-26.7852,-60.4388,79.11,43,0,5.59,AR,"Oct 21, 2022"
Kandrian,-6.2167,149.55,78.1,86,98,3.71,PG,"Oct 21, 2022"
Egvekinot,66.3167,-179.1667,26.94,90,100,7.72,RU,"Oct 21, 2022"
